<gpx>
<wpt lat="28.176412" lon="-82.788916">
  <name>Anclote River Boat Ramp</name>
</wpt>
<wpt lat="28.086285" lon="-82.770937">
  <name>Sutherland Bayou</name>
</wpt>
<wpt lat="27.974117" lon="-82.802535">
  <name>Seminole Boat Ramp</name>
</wpt>
<wpt lat="27.917771" lon="-82.827229">
  <name>Bellair Causeway</name>
</wpt>
<wpt lat="27.842533" lon="-82.838868">
  <name>Park Blvd Ramp</name>
</wpt>
<wpt lat="27.811985" lon="-82.767809">
  <name>Bay Pines/War Vets Boat Ramp</name>
</wpt>
<wpt lat="27.851997" lon="-82.633469">
  <name>Sunlit Cove</name>
</wpt>
<wpt lat="28.013905" lon="-82.682357">
  <name>Phillippe Park</name>
</wpt>
<wpt lat="28.143848" lon="-82.79023">
  <name>Sunset Beach Ramp</name>
</wpt>
<wpt lat="27.646285" lon="-82.717411">
  <name>Fort De Soto</name>
</wpt>
<wpt lat="27.712374" lon="-82.683008">
  <name>Maximo</name>
</wpt>
<wpt lat="27.917659" lon="-82.696198">
  <name>Coast Guard Ramp</name>
</wpt>
<wpt lat="28.13246636" lon="-82.72584909">
  <name>LT-N</name>
</wpt>
<wpt lat="28.11707661" lon="-82.72881218">
  <name>LT-C</name>
</wpt>
<wpt lat="28.10017311" lon="-82.71651754">
  <name>LT-S</name>
</wpt>
<wpt lat="27.8774" lon="-82.77528">
  <name>SA-Center</name>
</wpt>
<wpt lat="27.84823" lon="-82.78201">
  <name>SB-Center</name>
</wpt>
<wpt lat="28.010729" lon="-82.679959">
  <name>6</name>
</wpt>
<wpt lat="28.010654" lon="-82.679924">
  <name>8</name>
</wpt>
<wpt lat="28.010567" lon="-82.679829">
  <name>9</name>
</wpt>
<wpt lat="28.010557" lon="-82.679821">
  <name>10</name>
</wpt>
<wpt lat="28.010527" lon="-82.679786">
  <name>11</name>
</wpt>
<wpt lat="28.010446" lon="-82.67965">
  <name>13</name>
</wpt>
</gpx>
